{"type":"FeatureCollection","features":[{"type":"Feature","geometry":{"type":"Point","coordinates":[144.5288901,-37.3557213,0]},"properties":{"name":"Woodend Shopping Centre/High St","STOP_ID":"48121","STOP_NO":"1"}},{"type":"Feature","geometry":{"type":"Point","coordinates":[144.536237,-37.3447165,0]},"properties":{"name":"Carlisle St/Savages Ln","STOP_ID":"48122","STOP_NO":"2"}},{"type":"Feature","geometry":{"type":"Point","coordinates":[144.535166666667,-37.3419722222222,0]},"properties":{"name":"James Ct/Stuart Dr","STOP_ID":"48123","STOP_NO":"3"}},{"type":"Feature","geometry":{"type":"Point","coordinates":[144.534861111111,-37.3391666666667,0]},"properties":{"name":"Banksia Ct/Barbara St","STOP_ID":"48124","STOP_NO":"4"}},{"type":"Feature","geometry":{"type":"Point","coordinates":[144.5375,-37.3393055555556,0]},"properties":{"name":"Manifold Rd/Tree Change Way","STOP_ID":"48125","STOP_NO":"5"}},{"type":"Feature","geometry":{"type":"Point","coordinates":[144.536888888889,-37.3490833333333,0]},"properties":{"name":"Romsey Rd/East St","STOP_ID":"48126","STOP_NO":"6"}},{"type":"Feature","geometry":{"type":"Point","coordinates":[144.540333333333,-37.3524722222222,0]},"properties":{"name":"Ruby McKenzie Park/Tennyson St","STOP_ID":"48127","STOP_NO":"7"}},{"type":"Feature","geometry":{"type":"Point","coordinates":[144.53462,-37.35282,0]},"properties":{"name":"Norma Richardson Hall/Buckland St","STOP_ID":"48128","STOP_NO":"8"}},{"type":"Feature","geometry":{"type":"Point","coordinates":[144.534888888889,-37.3508888888889,0]},"properties":{"name":"High St/Brewster St","STOP_ID":"48129","STOP_NO":"9"}},{"type":"Feature","geometry":{"type":"Point","coordinates":[144.532194444444,-37.3541944444444,0]},"properties":{"name":"Woodend Primary School/Buckland St","STOP_ID":"48130","STOP_NO":"10"}},{"type":"Feature","geometry":{"type":"Point","coordinates":[144.528694444444,-37.3540555555556,0]},"properties":{"name":"Woodend Community Centre/Margery Cres","STOP_ID":"48131","STOP_NO":"11"}},{"type":"Feature","geometry":{"type":"Point","coordinates":[144.5212222,-37.3537778,0]},"properties":{"name":"Buffalo Sports Stadium/Woodend-Tylden Rd","STOP_ID":"48132","STOP_NO":"12"}},{"type":"Feature","geometry":{"type":"Point","coordinates":[144.526194444444,-37.3544722222222,0]},"properties":{"name":"Woodend Masonic Centre/Woodend-Tylden Rd","STOP_ID":"48133","STOP_NO":"13"}},{"type":"Feature","geometry":{"type":"Point","coordinates":[144.526416666667,-37.3578888888889,0]},"properties":{"name":"Woodend CFA/Urqhart St","STOP_ID":"48134","STOP_NO":"14"}},{"type":"Feature","geometry":{"type":"Point","coordinates":[144.523055555556,-37.3556111111111,0]},"properties":{"name":"Schaw St/Anslow St","STOP_ID":"48135","STOP_NO":"15"}},{"type":"Feature","geometry":{"type":"Point","coordinates":[144.529555555556,-37.3571111111111,0]},"properties":{"name":"Nicholson St/Anslow St","STOP_ID":"48136","STOP_NO":"16"}},{"type":"Feature","geometry":{"type":"Point","coordinates":[144.532361111111,-37.3585,0]},"properties":{"name":"St Ambrose PS/Urqhart St","STOP_ID":"48137","STOP_NO":"17"}},{"type":"Feature","geometry":{"type":"Point","coordinates":[144.5401904,-37.3607192,0]},"properties":{"name":"Morris Rd/Mountain View Ave","STOP_ID":"48138","STOP_NO":"18"}},{"type":"Feature","geometry":{"type":"Point","coordinates":[144.539861111111,-37.3634166666667,0]},"properties":{"name":"Morris Rd/Sullivans Rd","STOP_ID":"48139","STOP_NO":"19"}},{"type":"Feature","geometry":{"type":"Point","coordinates":[144.534333333333,-37.3624166666667,0]},"properties":{"name":"Bupa Medical Centre/Bowen St","STOP_ID":"48140","STOP_NO":"20"}},{"type":"Feature","geometry":{"type":"Point","coordinates":[144.532527777778,-37.3599166666667,0]},"properties":{"name":"Wood St/Mt Macedon Rd","STOP_ID":"48141","STOP_NO":"21"}},{"type":"Feature","geometry":{"type":"Point","coordinates":[144.52925,-37.3594444444444,0]},"properties":{"name":"Brooke St Medical Centre/Brooke St","STOP_ID":"48142","STOP_NO":"22"}},{"type":"Feature","geometry":{"type":"Point","coordinates":[144.53525,-37.36525,0]},"properties":{"name":"Quarry Rd/Reidwell Dr","STOP_ID":"48143","STOP_NO":"23"}},{"type":"Feature","geometry":{"type":"Point","coordinates":[144.527,-37.3689166666667,0]},"properties":{"name":"South Rd/Kathyrn Cres","STOP_ID":"48144","STOP_NO":"24"}},{"type":"Feature","geometry":{"type":"Point","coordinates":[144.5309838,-37.3676329,0]},"properties":{"name":"Doyeswood Dr/Washington Ln","STOP_ID":"48145","STOP_NO":"25"}},{"type":"Feature","geometry":{"type":"Point","coordinates":[144.530583333333,-37.3648333333333,0]},"properties":{"name":"Patricia Way/Peter Godden Dr","STOP_ID":"48146","STOP_NO":"26"}},{"type":"Feature","geometry":{"type":"Point","coordinates":[144.528027777778,-37.3633611111111,0]},"properties":{"name":"Coach House Bvd/Macedon-Woodend Rd","STOP_ID":"48147","STOP_NO":"27"}},{"type":"Feature","geometry":{"type":"Point","coordinates":[144.526444444444,-37.3596944444444,0]},"properties":{"name":"Woodend Station","STOP_ID":"48148","STOP_NO":"28"}},{"type":"Feature","geometry":{"type":"Point","coordinates":[144.524638888889,-37.3568333333333,0]},"properties":{"name":"Woodend RSL/Schaw St","STOP_ID":"48151","STOP_NO":"29"}},{"type":"Feature","geometry":{"type":"Point","coordinates":[144.525194444444,-37.3615277777778,0]},"properties":{"name":"Noonan Gr/Ashbourne Rd","STOP_ID":"48150","STOP_NO":"30"}},{"type":"Feature","geometry":{"type":"Point","coordinates":[144.519638888889,-37.3629166666667,0]},"properties":{"name":"Ashbourne Rd/Booths Lane","STOP_ID":"48149","STOP_NO":"31"}}]}